{"stations":[{"latitude":42.35352778,"longitude":-71.05622222,"name":"High St at Federal St","station_id":1},{"latitude":42.349589423682445,"longitude":-71.0794677917329,"name":"Boylston St at Exeter St","station_id":2},{"latitude":42.325333,"longitude":-71.075354,"name":"Dudley Town Common - Mt Pleasant Ave at Blue Hill Ave","station_id":3},{"latitude":42.38294430172271,"longitude":-71.12449831038248,"name":"Graham and Parks School \u2013 Linnaean St at Walker St","station_id":4},{"latitude":42.376369,"longitude":-71.114025,"name":"Harvard University Gund Hall at Quincy St / Kirkland St","station_id":5},{"latitude":42.36371276003581,"longitude":-71.12459778785706,"name":"Innovation Lab - 125 Western Ave at Batten Way","station_id":6},{"latitude":42.3489528466951,"longitude":-71.16031676530838,"name":"Washington St at Brock St","station_id":7},{"latitude":42.2945833,"longitude":-71.087111,"name":"Talbot Ave At Blue Hill Ave","station_id":8},{"latitude":42.384452256358436,"longitude":-71.07514854529654,"name":"Sullivan Square","station_id":9},{"latitude":42.3481,"longitude":-71.03764,"name":"Congress St at Northern Ave","station_id":10},{"latitude":42.361619320766856,"longitude":-71.0804355052096,"name":"One Memorial Drive","station_id":11},{"latitude":42.383532520117896,"longitude":-71.01619094610214,"name":"Bennington St at Byron St","station_id":12},{"latitude":42.412504507772105,"longitude":-71.05842225271772,"name":"Swan St. Park","station_id":13},{"latitude":42.366929,"longitude":-71.076512,"name":"CambridgeSide Galleria - CambridgeSide PL at Land Blvd","station_id":14},{"latitude":42.38066930871317,"longitude":-71.03907315999093,"name":"Marion St at White St","station_id":15},{"latitude":42.520136,"longitude":-70.906271,"name":"Community Life Center","station_id":16},{"latitude":42.364474565180565,"longitude":-71.12840831285212,"name":"175 N Harvard St","station_id":17},{"latitude":42.40449,"longitude":-71.123413,"name":"Packard Ave at Powderhouse Blvd","station_id":18},{"latitude":42.39517150121575,"longitude":-71.09850591982195,"name":"Broadway at Central St","station_id":19},{"latitude":42.35096144421219,"longitude":-71.07782810926437,"name":"Dartmouth St at Newbury St","station_id":20},{"latitude":42.36356498989399,"longitude":-71.10044184048091,"name":"Mass Ave/Lafayette Square","station_id":21},{"latitude":42.363560158429884,"longitude":-71.08216792345047,"name":"Kendall Street","station_id":22},{"latitude":42.50182398896298,"longitude":-70.89478075504303,"name":"Salem State University - Bike Path at Loring Ave","station_id":23},{"latitude":42.381650612901176,"longitude":-71.13426981498378,"name":"Huron Ave At Vassal Lane","station_id":24},{"latitude":42.36289,"longitude":-71.19127,"name":"Watertown St at 5th Ave","station_id":25},{"latitude":42.348717,"longitude":-71.085954,"name":"Newbury St at Hereford St","station_id":26},{"latitude":42.37207657915397,"longitude":-71.08995433905875,"name":"Berkshire Street at Cambridge Street","station_id":27},{"latitude":42.41759089672136,"longitude":-71.12608127863496,"name":"Auburn St. at Mystic River","station_id":28},{"latitude":42.331184,"longitude":-71.095171,"name":"Roxbury Crossing T Stop - Columbus Ave at Tremont St","station_id":29},{"latitude":42.360441356231235,"longitude":-71.05043940246105,"name":"Aquarium T Stop - 200 Atlantic Ave","station_id":30},{"latitude":42.38567578752914,"longitude":-71.11412136298895,"name":"Wilson Square","station_id":31},{"latitude":42.354659,"longitude":-71.053181,"name":"Purchase St at Pearl St","station_id":32},{"latitude":42.39189811591863,"longitude":-71.09745375830244,"name":"Somerville City Hall Annex","station_id":33},{"latitude":42.520897,"longitude":-70.910528,"name":"Goodhue St at Grove St","station_id":34},{"latitude":42.38267827521855,"longitude":-71.143478951426,"name":"Fresh Pond Reservation","station_id":35},{"latitude":42.36125721646537,"longitude":-71.06528744101524,"name":"Cambridge St at Joy St","station_id":36},{"latitude":42.310579,"longitude":-71.107341,"name":"Green Street T Stop - Green St at Amory St","station_id":37},{"latitude":42.387995,"longitude":-71.119084,"name":"Porter Square Station","station_id":38},{"latitude":42.292917,"longitude":-71.06575,"name":"Shawmut T Stop","station_id":39},{"latitude":42.3664204,"longitude":-71.0885418,"name":"Galileo Galilei Way at Fulkerson St/Binney St","station_id":40},{"latitude":42.423331368452885,"longitude":-71.09124541293568,"name":"Haines Square","station_id":41},{"latitude":42.428086,"longitude":-71.12636,"name":"Steve Miller Dr at Winthrop St (Medford High)","station_id":42},{"latitude":42.52989964975891,"longitude":-70.90614259243011,"name":"North St at Liberty Hill Ave","station_id":43},{"latitude":42.351146,"longitude":-71.066289,"name":"Stuart St at Charles St","station_id":44},{"latitude":42.383638948222654,"longitude":-71.10853672027588,"name":"Conway Park - Somerville Avenue","station_id":45},{"latitude":42.354104081396585,"longitude":-71.21382214128971,"name":"Watertown St at Albemarle Rd","station_id":46},{"latitude":42.338431795290944,"longitude":-71.08169049924982,"name":"Tremont St at Northampton St","station_id":47},{"latitude":42.29266592872725,"longitude":-71.12119538714069,"name":"Archdale Rd at Washington St","station_id":48},{"latitude":42.377022,"longitude":-71.056605,"name":"Hayes Square - Vine St at Moulton St","station_id":49},{"latitude":42.35711920909866,"longitude":-71.1860453666327,"name":"Bacon St at Washington St","station_id":50},{"latitude":42.3193094317828,"longitude":-71.09639923859504,"name":"The Dimock Center","station_id":51},{"latitude":42.40715655698643,"longitude":-70.99272429943085,"name":"Orr Sq (Shirley Ave)","station_id":52},{"latitude":42.523994,"longitude":-70.89684,"name":"Salem MBTA - Lower Level","station_id":53},{"latitude":42.35389024396587,"longitude":-71.19943707257335,"name":"Washington St at Crafts St","station_id":54},{"latitude":42.344137,"longitude":-71.052608,"name":"State Street at Channel Center","station_id":55},{"latitude":42.3374174845973,"longitude":-71.10286116600037,"name":"HMS/HSPH - Avenue Louis Pasteur at Longwood Ave","station_id":56},{"latitude":42.39239749145834,"longitude":-71.15058331757609,"name":"Smith Pl at Wilson Rd","station_id":57},{"latitude":42.3581,"longitude":-71.093198,"name":"MIT at Mass Ave / Amherst St","station_id":58},{"latitude":42.355335019412564,"longitude":-71.0582291708306,"name":"Arch St at Franklin St","station_id":59},{"latitude":42.51836788262243,"longitude":-70.88952362537384,"name":"Shetland Park - Congress at Peabody St","station_id":60},{"latitude":42.411709,"longitude":-71.110444,"name":"Main St at Brooks Park","station_id":61},{"latitude":42.37433925370521,"longitude":-71.11966431146357,"name":"Church St","station_id":62},{"latitude":42.2568376,"longitude":-71.122509,"name":"Hyde Park Library","station_id":63},{"latitude":42.33023070528729,"longitude":-71.05060093123029,"name":"Columbia Rd at Tierney Community Center","station_id":64},{"latitude":42.30791,"longitude":-71.080952,"name":"Grove Hall Library - 41 Geneva Ave","station_id":65},{"latitude":42.30981924861789,"longitude":-71.06019938382815,"name":"Hancock St at Pleasant St","station_id":66},{"latitude":42.317860205899876,"longitude":-71.07798628527235,"name":"Blue Hill Ave at Southwood St","station_id":67},{"latitude":42.40935395518158,"longitude":-71.14906518727366,"name":"Linwood St at Minuteman Bikeway","station_id":68},{"latitude":42.344792,"longitude":-71.044024,"name":"The Lawn on D","station_id":69},{"latitude":42.348803822833936,"longitude":-71.08236908912659,"name":"Boylston St at Fairfield St","station_id":70},{"latitude":42.36550728505653,"longitude":-71.0801375997653,"name":"75 Binney St","station_id":71},{"latitude":42.324173,"longitude":-71.10196,"name":"Martha Eliot Health Center","station_id":72},{"latitude":42.335741,"longitude":-71.03877,"name":"South Boston Library - 646 E Broadway","station_id":73},{"latitude":42.3607028354884,"longitude":-71.05524927377701,"name":"Clinton St at North St","station_id":74},{"latitude":42.373312125824704,"longitude":-71.0410200806291,"name":"Boston East - 126 Border St","station_id":75},{"latitude":42.39329263225162,"longitude":-71.0724475979805,"name":"Encore","station_id":76},{"latitude":42.332862884862635,"longitude":-71.09218861916816,"name":"Whittier St Health Center","station_id":77},{"latitude":42.380078,"longitude":-71.090098,"name":"Union Square East","station_id":78},{"latitude":42.29118034790426,"longitude":-71.117736660035,"name":"Northbourne Rd at Hyde Park Ave","station_id":79},{"latitude":42.379295,"longitude":-71.027733,"name":"Day Sq","station_id":80},{"latitude":42.26286746177123,"longitude":-71.12163126468657,"name":"Hyde Park Ave at Arlington St","station_id":81},{"latitude":42.4021215,"longitude":-71.0195408,"name":" Broadway and Cabot","station_id":82},{"latitude":42.299164979365884,"longitude":-71.07345871645519,"name":"Washington St at Bowdoin St","station_id":83},{"latitude":42.407381,"longitude":-71.055356,"name":"Everett Square (Broadway at Norwood St)","station_id":84},{"latitude":42.326599,"longitude":-71.066498,"name":"Newmarket Square T Stop - Massachusetts Ave at Newmarket Square","station_id":85},{"latitude":42.27265394101898,"longitude":-71.119903922081,"name":"American Legion Hwy at Hyde Park Ave","station_id":86},{"latitude":42.364263440638524,"longitude":-71.1182756971175,"name":"Soldiers Field Park - 111 Western Ave","station_id":87},{"latitude":42.434365,"longitude":-71.094755,"name":"Carr Park","station_id":88},{"latitude":42.41800742890374,"longitude":-71.0965722102992,"name":"Logan Park","station_id":89},{"latitude":42.34881026188269,"longitude":-71.04167744055303,"name":"Seaport Hotel - Congress St at Seaport Ln","station_id":90},{"latitude":42.35294569782581,"longitude":-71.05656400803126,"name":"Surface Rd at Summer St","station_id":91},{"latitude":42.40994213011757,"longitude":-71.14009319811885,"name":"Broadway at Grafton St","station_id":92},{"latitude":42.33420351352245,"longitude":-71.08767616843123,"name":"Flat 9 at Whittier","station_id":93},{"latitude":42.395588457167094,"longitude":-71.14260613918304,"name":"Alewife MBTA at Steel Place","station_id":94},{"latitude":42.378338,"longitude":-71.048927,"name":"Spaulding Rehabilitation Hospital - Charlestown Navy Yard","station_id":95},{"latitude":42.371848,"longitude":-71.060292,"name":"Warren St at Chelsea St","station_id":96},{"latitude":42.280728147169015,"longitude":-71.13423757273267,"name":"Washington St at Denton Terr","station_id":97},{"latitude":42.36466403441681,"longitude":-71.17569386959076,"name":"160 Arsenal St","station_id":98},{"latitude":42.370982,"longitude":-71.076638,"name":"O'Brien Highway at First Street","station_id":99},{"latitude":42.344040510016356,"longitude":-71.05737626552582,"name":"Dorchester Ave at Gillette Park","station_id":100},{"latitude":42.36774122306014,"longitude":-71.0333597474255,"name":"Maverick St at Massport Path","station_id":101},{"latitude":42.356052,"longitude":-71.069849,"name":"Beacon St at Charles St","station_id":102},{"latitude":42.379011,"longitude":-71.119945,"name":"Harvard Law School at Mass Ave / Jarvis St","station_id":103},{"latitude":42.34807412317439,"longitude":-71.07657015323639,"name":"Back Bay T Stop - Dartmouth St at Stuart St","station_id":104},{"latitude":42.322065656952944,"longitude":-71.2063729763031,"name":"Newton Highlands T","station_id":105},{"latitude":42.3443517550051,"longitude":-71.12490355968475,"name":"Harvard St and Stedman St","station_id":106},{"latitude":42.341574718737476,"longitude":-71.06890439987183,"name":"Washington St at Waltham St","station_id":107},{"latitude":42.392766,"longitude":-71.129042,"name":"Rindge Avenue - O'Neill Library","station_id":108},{"latitude":42.391658,"longitude":-71.080351,"name":"Grand Union Blvd at Revolution Dr","station_id":109},{"latitude":42.358477644348106,"longitude":-71.06135129928589,"name":"One Beacon St","station_id":110},{"latitude":42.38240377674137,"longitude":-71.03024303913116,"name":"Glendon St at Condor St","station_id":111},{"latitude":42.3621312344991,"longitude":-71.09115600585936,"name":"MIT Stata Center at Vassar St / Main St","station_id":112},{"latitude":42.368844082898356,"longitude":-71.03977829217911,"name":"Maverick Square - Lewis Mall","station_id":113},{"latitude":42.33758601097239,"longitude":-71.09627097845076,"name":"Wentworth Institute of Technology - Huntington Ave at Vancouver St","station_id":114},{"latitude":42.401697,"longitude":-71.106128,"name":"Tufts Sq - Main St at Medford St","station_id":115},{"latitude":42.37057753242139,"longitude":-71.03558540113227,"name":"Gove St at Orleans St","station_id":116},{"latitude":42.38004534693313,"longitude":-71.0730457305908,"name":"Hood Park","station_id":117},{"latitude":42.330062324402995,"longitude":-71.20668411254883,"name":"Beacon at Walnut","station_id":118},{"latitude":42.39648358247693,"longitude":-71.06546759905541,"name":"Broadway at Lynde St","station_id":119},{"latitude":42.3817508,"longitude":-71.0839523,"name":"Washington St at Myrtle St","station_id":120},{"latitude":42.364119035231525,"longitude":-71.02876782417297,"name":"Porzio Park","station_id":121},{"latitude":42.35082680669095,"longitude":-71.0898108780384,"name":"Beacon St at Massachusetts Ave","station_id":122},{"latitude":42.3876281075134,"longitude":-71.08318716287613,"name":"East Somerville Library (Broadway and Illinois)","station_id":123},{"latitude":42.33274392304887,"longitude":-71.11626680949485,"name":"Brookline Village - Station Street at MBTA","station_id":124},{"latitude":42.33329254719182,"longitude":-71.10124647617339,"name":"St. Alphonsus St at Tremont St","station_id":125},{"latitude":42.362427842912396,"longitude":-71.08495473861694,"name":"Kendall T","station_id":126},{"latitude":42.33639915372498,"longitude":-71.07306711393903,"name":"Boston Medical Center - E Concord St at Harrison Ave","station_id":127},{"latitude":42.397828,"longitude":-71.130516,"name":"Linear Park - Mass. Ave. at Cameron Ave. ","station_id":128},{"latitude":42.30321534982497,"longitude":-71.07820987712329,"name":"Four Corners/Geneva T Stop","station_id":129},{"latitude":42.380287,"longitude":-71.125107,"name":"Harvard University Radcliffe Quadrangle at Shepard St / Garden St","station_id":130},{"latitude":42.365260317694485,"longitude":-71.18573324459247,"name":"Watertown Sq","station_id":131},{"latitude":42.3636929,"longitude":-71.0875672,"name":"Ames St at Broadway","station_id":132},{"latitude":42.40016804853787,"longitude":-71.14456963094199,"name":"Thorndike Field at Minuteman Bikeway","station_id":133},{"latitude":42.37478628706384,"longitude":-71.13320231437683,"name":"Mt Auburn","station_id":134},{"latitude":42.28611420958351,"longitude":-71.14636927843094,"name":"Bellevue T Stop","station_id":135},{"latitude":42.369885,"longitude":-71.069957,"name":"EF - North Point Park","station_id":136},{"latitude":42.33073332585453,"longitude":-71.05699850837482,"name":"Andrew T Stop - Dorchester Ave at Dexter St","station_id":137},{"latitude":42.28887,"longitude":-71.095003,"name":"2 Hummingbird Lane at Olmsted Green","station_id":138},{"latitude":42.345901,"longitude":-71.063187,"name":"Ink Block - Harrison Ave at Herald St","station_id":139},{"latitude":42.420647,"longitude":-71.133483,"name":"West Medford Square (Bower St at Harvard Ave)","station_id":140},{"latitude":42.354979,"longitude":-71.063348,"name":"Tremont St at West St","station_id":141},{"latitude":42.359086,"longitude":-71.05971,"name":"Tremont St at Court St","station_id":142},{"latitude":42.374878467440965,"longitude":-71.06383498767171,"name":"Main St at Thompson Sq","station_id":143},{"latitude":42.338514601785995,"longitude":-71.07404083013535,"name":"Washington St at Rutland St","station_id":144},{"latitude":42.37546,"longitude":-71.091217,"name":"Boynton Yards at 101 South Street","station_id":145},{"latitude":42.351586001198456,"longitude":-71.04569256305693,"name":"Watermark Seaport - Boston Wharf Rd at Seaport Blvd","station_id":146},{"latitude":42.369061,"longitude":-71.079999,"name":"40 Thorndike St","station_id":147},{"latitude":42.300923,"longitude":-71.114249,"name":"Forest Hills","station_id":148},{"latitude":42.351911,"longitude":-71.123798,"name":"Commonwealth Ave at Naples Rd","station_id":149},{"latitude":42.39120971915856,"longitude":-71.12260755160605,"name":"Mass Ave at Hadley/Walden","station_id":150},{"latitude":42.390413,"longitude":-71.108571,"name":"Somerville Hospital","station_id":151},{"latitude":42.318697341722434,"longitude":-71.0697814822197,"name":"Uphams Corner T Stop - Magnolia St at Dudley St","station_id":152},{"latitude":42.5223714,"longitude":-70.8903331,"name":"Hawthorne Boulevard","station_id":153},{"latitude":42.357651,"longitude":-71.128513,"name":"Lincoln St at Empire St","station_id":154},{"latitude":42.39301840035393,"longitude":-71.08071684837341,"name":"Foley St at Grand Union Blvd","station_id":155},{"latitude":42.341332,"longitude":-71.076847,"name":"South End Library - Tremont St at W Newton St","station_id":156},{"latitude":42.36224178650923,"longitude":-71.0831107199192,"name":"One Broadway / Kendall Sq at Main St / 3rd St","station_id":157},{"latitude":42.303674088927075,"longitude":-71.05425953865051,"name":"Beach St at Freeport St","station_id":158},{"latitude":42.2856944,"longitude":-71.0641389,"name":"Ashmont T Stop","station_id":159},{"latitude":42.336448,"longitude":-71.023739,"name":"Murphy Skating Rink - 1880 Day Blvd","station_id":160},{"latitude":42.304127927390155,"longitude":-71.07929527759552,"name":"Four Corners - 157 Washington St","station_id":161},{"latitude":42.51803519796769,"longitude":-70.89570075273514,"name":"Mayor Salvo Path at Mill St","station_id":162},{"latitude":42.29704126420948,"longitude":-71.09171926975249,"name":"Circuit Drive at American Legion Hwy","station_id":163},{"latitude":42.36473898691789,"longitude":-71.05934903025626,"name":"Valenti Way at Haverhill St","station_id":164},{"latitude":42.520096183311445,"longitude":-70.8913904428482,"name":"Derby Street","station_id":165},{"latitude":42.389456,"longitude":-71.139019,"name":"Danehy Park at New Street","station_id":166},{"latitude":42.349600498642076,"longitude":-71.2262749671936,"name":"West Newton","station_id":167},{"latitude":42.37250864997261,"longitude":-71.11305356025696,"name":"Verizon Innovation Hub 10 Ware Street","station_id":168},{"latitude":42.316966,"longitude":-71.104374,"name":"Stony Brook T Stop","station_id":169},{"latitude":42.340835,"longitude":-71.0816197,"name":"Massachusetts Ave at Columbus Ave","station_id":170},{"latitude":42.372076114722866,"longitude":-71.15683130688922,"name":"Coolidge Sq.","station_id":171},{"latitude":42.347763454147454,"longitude":-71.0453599691391,"name":"Boston Convention and Exhibition Center - Summer St at West Side Dr","station_id":172},{"latitude":42.335958979433094,"longitude":-71.04622899561036,"name":"W Broadway at Dorchester St","station_id":173},{"latitude":42.33376472623494,"longitude":-71.12046446660315,"name":"Brookline Town Hall","station_id":174},{"latitude":42.400877,"longitude":-71.116772,"name":"Powder House Circle - Nathan Tufts Park","station_id":175},{"latitude":42.286331991127746,"longitude":-71.15344755369732,"name":"Centre St at W. Roxbury Post Office","station_id":176},{"latitude":42.390821,"longitude":-71.143946,"name":"55 Wheeler Street","station_id":177},{"latitude":42.36054174140606,"longitude":-71.08669817447662,"name":"MIT Carleton St at Amherst St","station_id":178},{"latitude":42.330982,"longitude":-71.075526,"name":"Melnea Cass Blvd at Hampden St","station_id":179},{"latitude":42.3294633,"longitude":-71.0901582,"name":"Bartlett St at John Elliot Sq","station_id":180},{"latitude":42.350406,"longitude":-71.108279,"name":"B.U. Central - 725 Comm. Ave.","station_id":181},{"latitude":42.30785224238503,"longitude":-71.06512248516083,"name":"Bowdoin St at Quincy St","station_id":182},{"latitude":42.361780439606044,"longitude":-71.10809952020645,"name":"Dana Park","station_id":183},{"latitude":42.339194,"longitude":-71.06975,"name":"Harrison Ave at E. Dedham St","station_id":184},{"latitude":42.286212948246096,"longitude":-71.07942931372236,"name":"Thetford Ave at Norfolk St","station_id":185},{"latitude":42.365148708129546,"longitude":-71.20236039161682,"name":"California at Chapel","station_id":186},{"latitude":42.267902,"longitude":-71.093641,"name":"Mattapan T Stop","station_id":187},{"latitude":42.3931961102951,"longitude":-71.03344559669495,"name":"Bellingham Square","station_id":188},{"latitude":42.31787329345602,"longitude":-71.08243077993393,"name":"Roxbury YMCA - Warren St at MLK Blvd","station_id":189},{"latitude":42.36435589027983,"longitude":-71.0695936904267,"name":"Blossom St at Charles St","station_id":190},{"latitude":42.33584612997077,"longitude":-71.08038157224655,"name":"Shawmut Ave at Lenox St","station_id":191},{"latitude":42.40721644126376,"longitude":-71.09651505947113,"name":"Hormel Stadium","station_id":192},{"latitude":42.34740620525209,"longitude":-71.08678414955648,"name":"Boylston St at Massachusetts Ave","station_id":193},{"latitude":42.35957320109044,"longitude":-71.10129475593567,"name":"MIT Pacific St at Purrington St","station_id":194},{"latitude":42.3391085,"longitude":-71.0514432,"name":"W Broadway at D St","station_id":195},{"latitude":42.37875351212593,"longitude":-71.10707223415375,"name":"Beacon St at Washington / Kirkland","station_id":196},{"latitude":42.3060456272408,"longitude":-71.11570891001975,"name":"Jamaica St at South St","station_id":197},{"latitude":42.358155,"longitude":-71.052163,"name":"Surface Rd at India St","station_id":198},{"latitude":42.366446738529454,"longitude":-71.07654601335526,"name":"Rogers St & Land Blvd","station_id":199},{"latitude":42.377636,"longitude":-71.085954,"name":"Chestnut St at Poplar St","station_id":200},{"latitude":42.420348701645025,"longitude":-71.04419767862055,"name":"Pope John High School","station_id":201},{"latitude":42.34894857235593,"longitude":-71.15027189254761,"name":"Brighton Center - Washington St at Cambridge St","station_id":202},{"latitude":42.425178,"longitude":-71.110386,"name":"Governors Ave at Lawrence Rd","station_id":203},{"latitude":42.39108438146733,"longitude":-71.09039425849915,"name":"Foss Park","station_id":204},{"latitude":42.3528376,"longitude":-71.1296752,"name":"Brighton Ave at Linden St","station_id":205},{"latitude":42.33661005730433,"longitude":-71.11004680395126,"name":"Riverway at Brookline Ave","station_id":206},{"latitude":42.38831607584243,"longitude":-71.1106824874878,"name":"Craigie St at Summer St","station_id":207},{"latitude":42.345733,"longitude":-71.100694,"name":"Burlington Ave at Brookline Ave","station_id":208},{"latitude":42.34805541493346,"longitude":-71.2477594614029,"name":"Auburndale","station_id":209},{"latitude":42.3121203,"longitude":-71.1142981,"name":"Centre St at Seaverns Ave","station_id":210},{"latitude":42.3936,"longitude":-71.143941,"name":"84 Cambridgepark Dr","station_id":211},{"latitude":42.347241,"longitude":-71.105301,"name":"Park Dr at Buswell St","station_id":212},{"latitude":42.394541,"longitude":-71.030828,"name":"615 Broadway","station_id":213},{"latitude":42.39790817368333,"longitude":-71.14797130814623,"name":"Discovery Park - 30 Acorn Park Drive","station_id":214},{"latitude":42.40087950159558,"longitude":-71.12590793383788,"name":"Teele Square","station_id":215},{"latitude":42.385223935870535,"longitude":-71.01063068965232,"name":"Bennington St at Constitution Beach","station_id":216},{"latitude":42.37426713524931,"longitude":-71.10026478767395,"name":"Inman Square at Springfield St.","station_id":217},{"latitude":42.286012,"longitude":-71.090986,"name":"Blue Hill Ave at Havelock St","station_id":218},{"latitude":42.3502102,"longitude":-71.0446705,"name":"Pier 4 Blvd at Autumn Ln","station_id":219},{"latitude":42.39407223665884,"longitude":-71.11133694648743,"name":"Community Path at Cedar Street","station_id":220},{"latitude":42.377945,"longitude":-71.116865,"name":"Harvard University / SEAS Cruft-Pierce Halls at 29 Oxford St","station_id":221},{"latitude":42.371976784679745,"longitude":-71.07200495972165,"name":"Child Street at Brian P. Murphy Staircase","station_id":222},{"latitude":42.33462893055976,"longitude":-71.10407917767589,"name":"Brigham Circle - Francis St at Huntington Ave","station_id":223},{"latitude":42.34521562115022,"longitude":-71.0638403149278,"name":"Harrison Ave at Mullins Way","station_id":224},{"latitude":42.3436658245146,"longitude":-71.08582377433777,"name":"Christian Science Plaza - Massachusetts Ave at Westland Ave","station_id":225},{"latitude":42.306539,"longitude":-71.107669,"name":"Williams St at Washington St","station_id":226},{"latitude":42.34414898749529,"longitude":-71.11467361450195,"name":"1200 Beacon St","station_id":227},{"latitude":42.303469,"longitude":-71.085347,"name":"Franklin Park Zoo - Franklin Park Rd at Blue Hill Ave","station_id":228},{"latitude":42.377309,"longitude":-71.094428,"name":"Union Square Station","station_id":229},{"latitude":42.33826680058037,"longitude":-71.13894682028331,"name":"Beacon St at Tappan St","station_id":230},{"latitude":42.36304549626695,"longitude":-71.08287078916874,"name":"Broad Canal Way at Third Street","station_id":231},{"latitude":42.28578,"longitude":-71.109725,"name":"606 American Legion Hwy at Canterbury St","station_id":232},{"latitude":42.330528,"longitude":-71.192861,"name":"Langley Lot","station_id":233},{"latitude":42.506395,"longitude":-70.88693,"name":"Forest River Park","station_id":234},{"latitude":42.35892,"longitude":-71.057629,"name":"Boston City Hall - 28 State St","station_id":235},{"latitude":42.503332,"longitude":-70.891444,"name":"Salem State University - North Campus","station_id":236},{"latitude":42.309054,"longitude":-71.11543,"name":"Curtis Hall - South St at Centre St","station_id":237},{"latitude":42.51142784358897,"longitude":-70.89183300733566,"name":"Lafayette at Leach St","station_id":238},{"latitude":42.32464510949409,"longitude":-71.12135231494904,"name":"High St at Cypress St","station_id":239},{"latitude":42.372969,"longitude":-71.094445,"name":"Cambridge St - at Columbia St / Webster Ave","station_id":240},{"latitude":42.415327096032044,"longitude":-71.05281829839441,"name":"Hale Park","station_id":241},{"latitude":42.2556,"longitude":-71.12444,"name":"Cleary Sq","station_id":242},{"latitude":42.408156,"longitude":-71.0429,"name":"Gramsdorf Playground","station_id":243},{"latitude":42.278811581565975,"longitude":-71.11687703062671,"name":"American Legion Hwy at Cummins Hwy","station_id":244},{"latitude":42.38518146513944,"longitude":-71.0151367,"name":"Addison St at Saratoga St","station_id":245},{"latitude":42.36068455768156,"longitude":-71.20146199598821,"name":"Nonantum Library","station_id":246},{"latitude":42.32039374304257,"longitude":-71.05355408051764,"name":"Sydney St at Carson St","station_id":247},{"latitude":42.42386,"longitude":-71.067793,"name":"Northern Strand at Main St","station_id":248},{"latitude":42.357143,"longitude":-71.050699,"name":"Rowes Wharf at Atlantic Ave","station_id":249},{"latitude":42.40741,"longitude":-71.0139,"name":"Revere City Hall","station_id":250},{"latitude":42.380788172914286,"longitude":-71.15412890911102,"name":"700 Huron Ave","station_id":251},{"latitude":42.355601213279265,"longitude":-71.10394477844238,"name":"MIT Vassar St","station_id":252},{"latitude":42.37927324600841,"longitude":-71.10341902831351,"name":"Perry Park","station_id":253},{"latitude":42.35574334805774,"longitude":-71.18641942508475,"name":"Centre St at Washington St","station_id":254},{"latitude":42.34854543411198,"longitude":-71.06559185315746,"name":"Shawmut Ave at Oak St W","station_id":255},{"latitude":42.40726052447951,"longitude":-71.14382132425817,"name":"Mass Ave at Grafton St","station_id":256},{"latitude":42.369536,"longitude":-71.039431,"name":"East Boston Neighborhood Health Center - 20 Maverick Square","station_id":257},{"latitude":42.38717463348314,"longitude":-71.08714388528824,"name":"Edgerly Education Center","station_id":258},{"latitude":42.3324824,"longitude":-71.0542411,"name":"Damrell St at Old Colony Ave","station_id":259},{"latitude":42.290333,"longitude":-71.071806,"name":"Washington St at Talbot Ave","station_id":260},{"latitude":42.36722,"longitude":-71.08903,"name":"325 Binney St.","station_id":261},{"latitude":42.27094707029229,"longitude":-71.07337901405117,"name":"Central Ave at River St","station_id":262},{"latitude":42.39778339961249,"longitude":-71.10594004465383,"name":"Magoun Square at Trum Field","station_id":263},{"latitude":42.352409,"longitude":-71.062679,"name":"Chinatown T Stop","station_id":264},{"latitude":42.408088,"longitude":-71.008942,"name":"Revere Public Library","station_id":265},{"latitude":42.3362358,"longitude":-71.1934421,"name":"Centre St at Commonwealth Ave","station_id":266},{"latitude":42.345392,"longitude":-71.069616,"name":"Tremont St at E Berkeley St","station_id":267},{"latitude":42.386141411639564,"longitude":-71.07828140258789,"name":"Broadway St at Mt Pleasant St","station_id":268},{"latitude":42.3461009,"longitude":-71.0291997,"name":"Au Bon Pain Way at Fid Kennedy Ave","station_id":269},{"latitude":42.36769018024484,"longitude":-71.07116281986237,"name":"Museum of Science","station_id":270},{"latitude":42.366277,"longitude":-71.09169,"name":"One Kendall Square at Hampshire St / Portland St","station_id":271},{"latitude":42.365673,"longitude":-71.064263,"name":"Nashua Street at Red Auerbach Way","station_id":272},{"latitude":42.36501119822304,"longitude":-71.03528559207916,"name":"Piers Park","station_id":273},{"latitude":42.274620671812244,"longitude":-71.09372552493369,"name":"Blue Hill Ave at Almont St","station_id":274},{"latitude":42.291718,"longitude":-71.062571,"name":"Dorchester Ave at King St","station_id":275},{"latitude":42.3598253979878,"longitude":-71.05979576244862,"name":"Government Center - Cambridge St at Court St","station_id":276},{"latitude":42.410346909767846,"longitude":-71.05260457852637,"name":"Broadway at Maple St","station_id":277},{"latitude":42.31218918475612,"longitude":-71.03648586203235,"name":"University of Massachusetts Boston - Campus Center","station_id":278},{"latitude":42.37500235137831,"longitude":-71.14871613699506,"name":"699 Mt Auburn St","station_id":279},{"latitude":42.426541,"longitude":-71.073179,"name":"Malden Center T Station","station_id":280},{"latitude":42.351356,"longitude":-71.059367,"name":"Chinatown Gate Plaza","station_id":281},{"latitude":42.34924376955301,"longitude":-71.09728209692548,"name":"Deerfield St at Commonwealth Ave","station_id":282},{"latitude":42.36079296858265,"longitude":-71.07118962337152,"name":"Charles Circle - Charles St at Cambridge St","station_id":283},{"latitude":42.52810051875824,"longitude":-70.88971138000488,"name":"Bridge Street Neck","station_id":284},{"latitude":42.388966,"longitude":-71.132788,"name":"Danehy Park","station_id":285},{"latitude":42.31727474327453,"longitude":-71.06537003967787,"name":"Uphams Corner","station_id":286},{"latitude":42.36895180540729,"longitude":-71.10998779535294,"name":"955 Mass Ave","station_id":287},{"latitude":42.3625,"longitude":-71.08822,"name":"Ames St at Main St","station_id":288},{"latitude":42.32293117195949,"longitude":-71.10014140605927,"name":"Jackson Square T Stop","station_id":289},{"latitude":42.392232840046276,"longitude":-71.07746601104736,"name":"Assembly Square T","station_id":290},{"latitude":42.35317809186252,"longitude":-71.04817356923377,"name":"Seaport Blvd at Sleeper St","station_id":291},{"latitude":42.36544486137399,"longitude":-71.08277142047882,"name":"Third at Binney","station_id":292},{"latitude":42.344650628878306,"longitude":-71.09732501226972,"name":"Boylston St at Jersey St","station_id":293},{"latitude":42.403369462300134,"longitude":-71.04731440549585,"name":"Chelsea St at Vine St","station_id":294},{"latitude":42.424981,"longitude":-71.098973,"name":"Hickey Park","station_id":295},{"latitude":42.339202,"longitude":-71.090511,"name":"Forsyth St at Huntington Ave","station_id":296},{"latitude":42.366621,"longitude":-71.114214,"name":"Harvard University Housing - 115 Putnam Ave at Peabody Terrace","station_id":297},{"latitude":42.340122426966424,"longitude":-71.12070563810447,"name":"Marion St at Harvard St","station_id":298},{"latitude":42.35668334969929,"longitude":-71.06166645884514,"name":"Tremont St at Hamilton Pl","station_id":299},{"latitude":42.3334,"longitude":-71.02495,"name":"Farragut Rd at E. 6th St","station_id":300},{"latitude":42.363871,"longitude":-71.050877,"name":"Lewis Wharf at Atlantic Ave","station_id":301},{"latitude":42.332817,"longitude":-71.081198,"name":"Washington St at Melnea Cass Blvd","station_id":302},{"latitude":42.352052,"longitude":-71.07036,"name":"Boylston St at Arlington St","station_id":303},{"latitude":42.35496799,"longitude":-71.06097685,"name":"Washington St at Temple Pl","station_id":304},{"latitude":42.38736953747185,"longitude":-71.12761001482795,"name":"Raymond Park at Walden St","station_id":305},{"latitude":42.3615457081725,"longitude":-71.13776206970215,"name":"Brighton Mills - 370 Western Ave","station_id":306},{"latitude":42.403444,"longitude":-71.063278,"name":"Northern Strand - West St & Wellington Ave","station_id":307},{"latitude":42.32143814183195,"longitude":-71.09126061201096,"name":"MLK Blvd at Washington St","station_id":308},{"latitude":42.392568,"longitude":-71.150761,"name":"101 Smith Place","station_id":309},{"latitude":42.343048583900966,"longitude":-71.05803430091328,"name":"Broadway T Stop","station_id":310},{"latitude":42.320561,"longitude":-71.06198,"name":"E Cottage St at Columbia Rd","station_id":311},{"latitude":42.36507,"longitude":-71.1031,"name":"Central Square at Mass Ave / Essex St","station_id":312},{"latitude":42.34922469338298,"longitude":-71.13275302578586,"name":"Commonwealth Ave at Griggs St","station_id":313},{"latitude":42.2873611,"longitude":-71.071111,"name":"Codman Square Library","station_id":314},{"latitude":42.272548,"longitude":-71.062882,"name":"Butler T Stop","station_id":315},{"latitude":42.280725142920296,"longitude":-71.08617242434775,"name":"Morton St T","station_id":316},{"latitude":42.370744,"longitude":-71.044201,"name":"The Eddy - New St at Sumner St","station_id":317},{"latitude":42.3511419825475,"longitude":-71.07329249382019,"name":"Boylston St at Berkeley St","station_id":318},{"latitude":42.37197725963389,"longitude":-71.07585847383234,"name":"Morgan Ave at North First St","station_id":319},{"latitude":42.373268,"longitude":-71.118579,"name":"Harvard Square at Mass Ave/ Dunster","station_id":320},{"latitude":42.357218503176526,"longitude":-71.1138716340065,"name":"Lower Cambridgeport at Magazine St / Riverside Rd","station_id":321},{"latitude":42.366426,"longitude":-71.105495,"name":"Central Sq Post Office / Cambridge City Hall at Mass Ave / Pleasant St","station_id":322},{"latitude":42.277484442008216,"longitude":-71.16341467955863,"name":"Spring St at Powell St","station_id":323},{"latitude":42.35732921867706,"longitude":-71.14673539996147,"name":"New Balance - 20 Guest St","station_id":324},{"latitude":42.344827,"longitude":-71.028664,"name":"ID Building East","station_id":325},{"latitude":42.34024644768889,"longitude":-71.15168806174552,"name":"Commonwealth Ave at Chiswick Rd","station_id":326},{"latitude":42.331370168043215,"longitude":-71.1268836054569,"name":"Tappan St at Brookline Hills MBTA","station_id":327},{"latitude":42.48628784971989,"longitude":-70.90166732668875,"name":"Vinnin Square","station_id":328},{"latitude":42.351004495946704,"longitude":-71.04930013418198,"name":"Congress St at Sleeper St","station_id":329},{"latitude":42.3629016,"longitude":-71.0915669,"name":"Main Street/Albany Street/Technology Square","station_id":330},{"latitude":42.34992828230057,"longitude":-71.07739206866427,"name":"Copley Square - Dartmouth St at Boylston St","station_id":331},{"latitude":42.365188,"longitude":-71.060788,"name":"Canal St at Causeway St","station_id":332},{"latitude":42.351458116963016,"longitude":-71.20764970779419,"name":"Washington St at Walnut St","station_id":333},{"latitude":42.34135615767354,"longitude":-71.08336953450817,"name":"Mass Ave T Station","station_id":334},{"latitude":42.343690557197476,"longitude":-71.10235286881107,"name":"Landmark Center - Brookline Ave at Park Dr","station_id":335},{"latitude":42.348706,"longitude":-71.097009,"name":"Kenmore Square","station_id":336},{"latitude":42.375353774222354,"longitude":-71.03131771093103,"name":"Airport T Stop - Bremen St at Brooks St","station_id":337},{"latitude":42.371141,"longitude":-71.076198,"name":"Cambridge Crossing at North First Street","station_id":338},{"latitude":42.33985827126298,"longitude":-71.13421171095978,"name":"Washington Sq","station_id":339},{"latitude":42.36608797388682,"longitude":-71.08633603909765,"name":"Binney St / Sixth St","station_id":340},{"latitude":42.35148193460858,"longitude":-71.04436084628105,"name":"Seaport Square - Seaport Blvd at Northern Ave","station_id":341},{"latitude":42.406302,"longitude":-71.132446,"name":"Clarendon Hill at Broadway","station_id":342},{"latitude":42.392525,"longitude":-71.105587,"name":"Community Path at Lowell St","station_id":343},{"latitude":42.299633488420625,"longitude":-71.06068975823291,"name":"Fields Corner T Stop","station_id":344},{"latitude":42.390719,"longitude":-71.1538877,"name":"Concord Ave at Spinelli Place","station_id":345},{"latitude":42.287072,"longitude":-71.127754,"name":"Roslindale Village - South St","station_id":346},{"latitude":42.426537658440544,"longitude":-71.06393694877625,"name":"Malden High School","station_id":347},{"latitude":42.34942609892521,"longitude":-71.06209959843909,"name":"Harrison Ave at Bennet St","station_id":348},{"latitude":42.380857,"longitude":-71.070629,"name":"Main St at Baldwin St","station_id":349},{"latitude":42.335543083570826,"longitude":-71.15061519672052,"name":"Cleveland Circle","station_id":350},{"latitude":42.396386809455,"longitude":-71.12011306006025,"name":"Grove St at Community Path","station_id":351},{"latitude":42.53466911383265,"longitude":-70.87021440267563,"name":"Salem Willows Park","station_id":352},{"latitude":42.351828068920675,"longitude":-71.06781138111728,"name":"Park Plaza at Charles St S.","station_id":353},{"latitude":42.281986277339136,"longitude":-71.07147924620222,"name":"Washington St at Fuller St","station_id":354},{"latitude":42.3106,"longitude":-71.0539,"name":"Savin Hill T Stop - S Sydney St at Bay St","station_id":355},{"latitude":42.4023682,"longitude":-71.07573182424781,"name":"Wellington MBTA","station_id":356},{"latitude":42.36041774637169,"longitude":-71.05752243543975,"name":"Congress St at Boston City Hall","station_id":357},{"latitude":42.3864,"longitude":-71.09601,"name":"Somerville High School & Central Library","station_id":358},{"latitude":42.336203368830134,"longitude":-71.207794547081,"name":"Newton Library","station_id":359},{"latitude":42.34652003998412,"longitude":-71.08065776545118,"name":"Prudential Center - 101 Huntington Ave","station_id":360},{"latitude":42.32033973515723,"longitude":-71.05118036270142,"name":"JFK/UMass T Stop","station_id":361},{"latitude":42.375603,"longitude":-71.064608,"name":"Main St at Austin St","station_id":362},{"latitude":42.36349850640871,"longitude":-71.16421658177295,"name":"Arsenal on the Charles","station_id":363},{"latitude":42.374124549426526,"longitude":-71.05481199938367,"name":"Charlestown Navy Yard","station_id":364},{"latitude":42.35154734791375,"longitude":-71.12126246094704,"name":"Commonwealth Ave At Babcock St","station_id":365},{"latitude":42.329842993518085,"longitude":-71.08386572459494,"name":"Dudley Square - Bolling Building","station_id":366},{"latitude":42.373379,"longitude":-71.111075,"name":"Cambridge Main Library at Broadway / Trowbridge St","station_id":367},{"latitude":42.373079797934935,"longitude":-71.08634233665725,"name":"Gore Street at Lambert Street","station_id":368},{"latitude":42.37410622047334,"longitude":-71.03276252757496,"name":"Bremen St at Marion St","station_id":369},{"latitude":42.35159662465317,"longitude":-71.0756166279316,"name":"Clarendon St at Newbury St","station_id":370},{"latitude":42.2645666,"longitude":-71.1145523,"name":"Ross Playground","station_id":371},{"latitude":42.34949599514002,"longitude":-71.10057592391968,"name":"Silber Way","station_id":372},{"latitude":42.41606457115141,"longitude":-71.15336636682059,"name":"Railroad Lot and Minuteman Bikeway","station_id":373},{"latitude":42.341814,"longitude":-71.090179,"name":"Northeastern University - North Parking Lot","station_id":374},{"latitude":42.41427294293992,"longitude":-71.04479655659816,"name":"Glendale Square (Ferry St at Broadway)","station_id":375},{"latitude":42.35057,"longitude":-71.166491,"name":"Oak Square - 615 Washington St","station_id":376},{"latitude":42.36277388549605,"longitude":-71.15764854490408,"name":"Arsenal Yards","station_id":377},{"latitude":42.342958,"longitude":-71.067052,"name":"Washington St at Peters Park","station_id":378},{"latitude":42.34734473177431,"longitude":-71.1001680795016,"name":"Lansdowne T Stop","station_id":379},{"latitude":42.38952436305763,"longitude":-71.11694140364307,"name":"Elm St at White St","station_id":380},{"latitude":42.278747,"longitude":-71.080286,"name":"Morton St at Gallivan Blvd","station_id":381},{"latitude":42.32760387040573,"longitude":-71.11089169979095,"name":"S Huntington Ave at Heath St","station_id":382},{"latitude":42.31870274532011,"longitude":-71.05889977661718,"name":"Meaney Playground - Pleasant St at E Cottage St","station_id":383},{"latitude":42.324081,"longitude":-71.083235,"name":"Walnut Ave at Warren St","station_id":384},{"latitude":42.34960945333059,"longitude":-71.10391523698127,"name":"700 Commonwealth Ave.","station_id":385},{"latitude":42.37119727759414,"longitude":-71.09759867191315,"name":"Cambridge Dept. of Public Works -147 Hampshire St.","station_id":386},{"latitude":42.32784317478686,"longitude":-71.1253622174263,"name":"Cypress St at Clark Playground","station_id":387},{"latitude":42.269988465946064,"longitude":-71.09746182817616,"name":"Cummins Highway at Blue Hill Ave T Stop","station_id":388},{"latitude":42.417724,"longitude":-71.108102,"name":"Medford Sq - Riverside Ave at River St","station_id":389},{"latitude":42.35766247889882,"longitude":-71.1084133386612,"name":"Old Morse Park at Putnam Ave","station_id":390},{"latitude":42.353334,"longitude":-71.137313,"name":"Union Square - Brighton Ave at Cambridge St","station_id":391},{"latitude":42.36027370454934,"longitude":-71.12852452327388,"name":"Honan Library","station_id":392},{"latitude":42.29376656473529,"longitude":-71.1365658044815,"name":"Knoll St at Centre St","station_id":393},{"latitude":42.36264779118595,"longitude":-71.10006093978882,"name":"University Park","station_id":394},{"latitude":42.38100143038052,"longitude":-71.10402522613185,"name":"30 Dane St","station_id":395},{"latitude":42.309796,"longitude":-71.092225,"name":"Franklin Park - Seaver St at Humboldt Ave","station_id":396},{"latitude":42.33624444796878,"longitude":-71.08798563480377,"name":"Ruggles T Stop - Columbus Ave at Melnea Cass Blvd","station_id":397},{"latitude":42.341780891371904,"longitude":-71.03987016504107,"name":"645 Summer St","station_id":398},{"latitude":42.3867355,"longitude":-71.0946444,"name":"Gilman Square T at Medford St","station_id":399},{"latitude":42.346197076555455,"longitude":-71.10728681087494,"name":"St Mary's","station_id":400},{"latitude":42.39636527849676,"longitude":-71.03987179230899,"name":"Chelsea Station","station_id":401},{"latitude":42.338629,"longitude":-71.1065,"name":"Longwood Ave at Binney St","station_id":402},{"latitude":42.36762048745005,"longitude":-71.1565663665533,"name":"Nichols Ave. at Watertown Greenway","station_id":403},{"latitude":42.28630716010807,"longitude":-71.12820532182013,"name":"Roslindale Village - Washington St","station_id":404},{"latitude":42.369239074859216,"longitude":-71.11687034368515,"name":"Harvard University River Houses at DeWolfe St / Cowperthwaite St","station_id":405},{"latitude":42.33664795427071,"longitude":-71.0689445958451,"name":"Albany St at E. Brookline St","station_id":406},{"latitude":42.317642,"longitude":-71.056664,"name":"Ryan Playground - Dorchester Ave at Harbor View St","station_id":407},{"latitude":42.343706,"longitude":-71.153257,"name":"Chestnut Hill Ave at Ledgemere Rd","station_id":408},{"latitude":42.37964789967527,"longitude":-71.09540475672475,"name":"Union Square - Somerville","station_id":409},{"latitude":42.395221870310664,"longitude":-71.14421904097979,"name":"87-101 Cambridgepark Drive","station_id":410},{"latitude":42.39836059620832,"longitude":-71.06373842814719,"name":"Broadway at Beacham St","station_id":411},{"latitude":42.365678711213775,"longitude":-71.04030132293701,"name":"Lewis Mall Wharf","station_id":412},{"latitude":42.28297567840305,"longitude":-71.05466698296368,"name":"Gallivan Blvd at Adams St","station_id":413},{"latitude":42.352261,"longitude":-71.123831,"name":"Packard's Corner - Commonwealth Ave at Brighton Ave","station_id":414},{"latitude":42.344796,"longitude":-71.031614,"name":"ID Building West","station_id":415},{"latitude":42.38536765218425,"longitude":-71.13775670528412,"name":"Vassal Lane at Tobin/VLUS","station_id":416},{"latitude":42.34286835071959,"longitude":-71.14127840855872,"name":"Washington St at Egremont Rd","station_id":417},{"latitude":42.29606704649873,"longitude":-71.11601199963843,"name":"Hyde Park Ave at Walk Hill St","station_id":418},{"latitude":42.291679428741226,"longitude":-71.05726346409938,"name":"Adams St at Lonsdale St","station_id":419},{"latitude":42.396105,"longitude":-71.139459,"name":"Alewife Station at Russell Field","station_id":420},{"latitude":42.406161241322444,"longitude":-71.06041654944418,"name":"Kearins Playground","station_id":421},{"latitude":42.32176525723952,"longitude":-71.10984160567114,"name":"Hyde Square - Centre St at Perkins St","station_id":422},{"latitude":42.36599432867437,"longitude":-71.09522221614498,"name":"Harvard St at Greene-Rose Heritage Park","station_id":423},{"latitude":42.34954403114251,"longitude":-71.0724207387284,"name":"Stuart St at Berkeley St","station_id":424},{"latitude":42.363003781560096,"longitude":-71.08974037706501,"name":"Galileo Galilei Way at Main Street","station_id":425},{"latitude":42.370803,"longitude":-71.104412,"name":"359 Broadway - Broadway at Fayette Street","station_id":426},{"latitude":42.29225148276875,"longitude":-71.07797205453608,"name":"Talbot Ave T Station","station_id":427},{"latitude":42.315692,"longitude":-71.098634,"name":"Egleston Square - Atherton St at Washington St","station_id":428},{"latitude":42.361787410661876,"longitude":-71.14393111327445,"name":"Western Ave at Richardson St","station_id":429},{"latitude":42.386844,"longitude":-71.09812,"name":"Somerville City Hall","station_id":430},{"latitude":42.3350989929096,"longitude":-71.07903778553009,"name":"Washington St at Lenox St","station_id":431},{"latitude":42.398135645582464,"longitude":-71.030709722545,"name":"Cary Square","station_id":432},{"latitude":42.34474224772802,"longitude":-71.07648162175792,"name":"Columbus Ave at W. Canton St","station_id":433},{"latitude":42.386781,"longitude":-71.006098,"name":"Orient Heights T Stop - Bennington St at Saratoga St","station_id":434},{"latitude":42.28277901074054,"longitude":-71.15728851416861,"name":"Centre St at Parkway YMCA","station_id":435},{"latitude":42.35849449039304,"longitude":-71.05426469875965,"name":"Broad St at Central St","station_id":436},{"latitude":42.408337058129746,"longitude":-70.99804848432541,"name":"Sumner St at Shirley Ave","station_id":437},{"latitude":42.41081837243052,"longitude":-71.08152866385353,"name":"Harris Park","station_id":438},{"latitude":42.390226711033826,"longitude":-71.03857017704286,"name":"Chelsea Square","station_id":439},{"latitude":42.31242399029812,"longitude":-71.09616905450821,"name":"Walnut Ave at School St","station_id":440},{"latitude":42.27960759693163,"longitude":-71.06022119527552,"name":"Cedar Grove T Stop","station_id":441},{"latitude":42.3722168027866,"longitude":-71.12188071012497,"name":"Harvard Kennedy School at Bennett St / Eliot St","station_id":442},{"latitude":42.29442578670662,"longitude":-71.07821760713703,"name":"Park St at Norwell St","station_id":443},{"latitude":42.31886468217537,"longitude":-71.04536797860419,"name":"Geiger Gibson Community Health Center","station_id":444},{"latitude":42.52189284110247,"longitude":-70.8806911110878,"name":"Salem Ferry Landing","station_id":445},{"latitude":42.36085937353302,"longitude":-71.08551858007559,"name":"MIT Hayward St at Amherst St","station_id":446},{"latitude":42.52345239346618,"longitude":-70.89611113071442,"name":"Salem MBTA - Washington at Federal St","station_id":447},{"latitude":42.380429474494896,"longitude":-71.06055721676967,"name":"Medford St at Charlestown BCYF","station_id":448},{"latitude":42.336585554561154,"longitude":-71.0988699646623,"name":"Huntington Ave at Mass Art","station_id":449},{"latitude":42.316902,"longitude":-71.091946,"name":"NCAAA - Walnut Ave at Crawford St","station_id":450},{"latitude":42.36955297756508,"longitude":-71.08579014980933,"name":"Kennedy-Longfellow School 158 Spring St","station_id":451},{"latitude":42.36590788445084,"longitude":-71.06446668505669,"name":"West End Park","station_id":452},{"latitude":42.343749,"longitude":-71.062256,"name":"Troy Boston","station_id":453},{"latitude":42.363539,"longitude":-71.111698,"name":"Moore Youth Center","station_id":454},{"latitude":42.352175,"longitude":-71.055547,"name":"South Station - 700 Atlantic Ave","station_id":455},{"latitude":42.516223,"longitude":-70.905535,"name":"Essex St at Dalton Parkway","station_id":456},{"latitude":42.28634589486312,"longitude":-71.13672129828046,"name":"Belgrade Ave at Walworth St","station_id":457},{"latitude":42.33987891612856,"longitude":-71.16708934307098,"name":"Boston College T","station_id":458},{"latitude":42.378965,"longitude":-71.068607,"name":"Edwards Playground - Main St at Eden St","station_id":459},{"latitude":42.37544912547037,"longitude":-71.03918548682486,"name":"Central Square East Boston","station_id":460},{"latitude":42.33759485033856,"longitude":-71.08255058528357,"name":"Lenox St at Kendall St","station_id":461},{"latitude":42.37408991426522,"longitude":-71.06905996799469,"name":"Bunker Hill Community College","station_id":462},{"latitude":42.34254913737952,"longitude":-71.07421449387857,"name":"Tremont St at W. Dedham St","station_id":463},{"latitude":42.34011512249236,"longitude":-71.10061883926392,"name":"Colleges of the Fenway - Fenway at Avenue Louis Pasteur","station_id":464},{"latitude":42.35775309465199,"longitude":-71.10393404960632,"name":"Sidney Research Campus/Erie Street at Waverly","station_id":465},{"latitude":42.309572,"longitude":-71.0729,"name":"Columbia Rd at Ceylon St","station_id":466},{"latitude":42.356560923089404,"longitude":-71.14167537549292,"name":"Boston Landing","station_id":467},{"latitude":42.38674802045056,"longitude":-71.11901879310608,"name":"Lesley University","station_id":468},{"latitude":42.39936816059618,"longitude":-71.11111521723615,"name":"Ball Sq","station_id":469},{"latitude":42.28484472443536,"longitude":-71.11874517062459,"name":"Mt. Hope St at Hyde Park Ave","station_id":470},{"latitude":42.396969,"longitude":-71.123024,"name":"Davis Square","station_id":471},{"latitude":42.300806,"longitude":-71.127436,"name":"Centre St at Allandale St","station_id":472},{"latitude":42.36759307632294,"longitude":-71.18751436471939,"name":"Watertown City Hall","station_id":473},{"latitude":42.3533905070523,"longitude":-71.04457139968872,"name":"Fan Pier","station_id":474},{"latitude":42.2681,"longitude":-71.11924,"name":"555 Metropolitan Ave","station_id":475},{"latitude":42.346551241753566,"longitude":-71.1283321143128,"name":"JFK Crossing at Harvard St. / Thorndike St.","station_id":476},{"latitude":42.36903566594827,"longitude":-71.08630959910442,"name":"John Ahern Field at Kennedy-Longfellow School","station_id":477},{"latitude":42.36412658996667,"longitude":-71.0873863200095,"name":"Broadway at Kittie Knox Bike Path","station_id":478},{"latitude":42.355536284897084,"longitude":-71.07286870479584,"name":"Mugar Way at Beacon St","station_id":479},{"latitude":42.348358628170445,"longitude":-71.13997217276847,"name":"Commonwealth Ave at Kelton St","station_id":480},{"latitude":42.35169201885973,"longitude":-71.11903488636017,"name":"Commonwealth Ave at Agganis Way","station_id":481},{"latitude":42.34953016890375,"longitude":-71.13022770741735,"name":"Harvard Ave at Brainerd Rd","station_id":482},{"latitude":42.369931,"longitude":-71.073526,"name":"Elevate at One Leighton","station_id":483},{"latitude":42.36346469304347,"longitude":-71.10057324171066,"name":"Lafayette Square at Mass Ave / Main St / Columbia St","station_id":484},{"latitude":42.2773889,"longitude":-71.09325,"name":"Mattapan Library","station_id":485},{"latitude":42.35019319808638,"longitude":-71.07744187116623,"name":"Boylston St at Dartmouth St","station_id":486},{"latitude":42.368019,"longitude":-71.1242,"name":"Harvard Stadium: N. Harvard St at Soldiers Field Rd","station_id":487},{"latitude":42.34679008347347,"longitude":-71.14549813806661,"name":"The Overlook at St. Gabriel's","station_id":488},{"latitude":42.35585435522005,"longitude":-71.05459745998814,"name":"Post Office Square","station_id":489},{"latitude":42.333922701369964,"longitude":-71.10446508982932,"name":"One Brigham Circle","station_id":490},{"latitude":42.36860524248197,"longitude":-71.09930185605663,"name":"Sennott Park Broadway at Norfolk Street","station_id":491},{"latitude":42.38032335045416,"longitude":-71.10878612855231,"name":"191 Beacon St","station_id":492},{"latitude":42.36135837662249,"longitude":-71.09670273977825,"name":"Mass Ave at Albany St","station_id":493},{"latitude":42.373328798874056,"longitude":-71.12098601080106,"name":"Harvard Square at Brattle St / Eliot St","station_id":494},{"latitude":42.341598,"longitude":-71.123338,"name":"Coolidge Corner - Beacon St at Centre St","station_id":495},{"latitude":42.362811,"longitude":-71.056067,"name":"Cross St at Hanover St","station_id":496},{"latitude":42.41143222973408,"longitude":-71.06823265090497,"name":"7 Acre Park","station_id":497},{"latitude":42.398417726101584,"longitude":-71.02390923402707,"name":"855 Broadway","station_id":22889},{"latitude":42.277194696397906,"longitude":-71.06955613950048,"name":"Washington St at Walsh Playground","station_id":9451897}]}